{
"type": "FeatureCollection",
"name": "stations",
"crs": { "type": "name", "properties": { "name": "urn:ogc:def:crs:OGC:1.3:CRS84" } },
"features": [
{ "type": "Feature", "properties": { "element": "node", "id": 165688241, "name": "Cardeal Arcoverde / Copacabana", "linha": "desconhecida" }, "geometry": { "type": "Point", "coordinates": [ -43.1813721, -22.9638248 ] } },
{ "type": "Feature", "properties": { "element": "node", "id": 180337351, "name": "Glória", "linha": "desconhecida" }, "geometry": { "type": "Point", "coordinates": [ -43.1767129, -22.9206456 ] } },
{ "type": "Feature", "properties": { "element": "node", "id": 246126554, "name": "Estácio", "linha": "desconhecida" }, "geometry": { "type": "Point", "coordinates": [ -43.2065639, -22.9135438 ] } },
{ "type": "Feature", "properties": { "element": "node", "id": 332517552, "name": "Catete", "linha": "desconhecida" }, "geometry": { "type": "Point", "coordinates": [ -43.1765501, -22.9259549 ] } },
{ "type": "Feature", "properties": { "element": "node", "id": 506848463, "name": "Botafogo", "linha": "desconhecida" }, "geometry": { "type": "Point", "coordinates": [ -43.1842007, -22.9503653 ] } },
{ "type": "Feature", "properties": { "element": "node", "id": 687072757, "name": "São Francisco Xavier", "linha": "desconhecida" }, "geometry": { "type": "Point", "coordinates": [ -43.2447413, -22.9023387 ] } },
{ "type": "Feature", "properties": { "element": "node", "id": 710950049, "name": "São Francisco Xavier / Tijuca", "linha": "desconhecida" }, "geometry": { "type": "Point", "coordinates": [ -43.2235819, -22.920772 ] } },
{ "type": "Feature", "properties": { "element": "node", "id": 710950083, "name": "Afonso Pena / Tijuca", "linha": "desconhecida" }, "geometry": { "type": "Point", "coordinates": [ -43.2177451, -22.9184484 ] } },
{ "type": "Feature", "properties": { "element": "node", "id": 712848988, "name": "Coelho Neto", "linha": "desconhecida" }, "geometry": { "type": "Point", "coordinates": [ -43.3429193, -22.8318735 ] } },
{ "type": "Feature", "properties": { "element": "node", "id": 712848989, "name": "Acari / Fazenda Botafogo", "linha": "desconhecida" }, "geometry": { "type": "Point", "coordinates": [ -43.3493019, -22.8249975 ] } },
{ "type": "Feature", "properties": { "element": "node", "id": 712848991, "name": "Engenheiro Rubens Paiva", "linha": "desconhecida" }, "geometry": { "type": "Point", "coordinates": [ -43.3584824, -22.8162957 ] } },
{ "type": "Feature", "properties": { "element": "node", "id": 712848995, "name": "Thomáz Coelho", "linha": "desconhecida" }, "geometry": { "type": "Point", "coordinates": [ -43.3067943, -22.8626005 ] } },
{ "type": "Feature", "properties": { "element": "node", "id": 712848997, "name": "Vicente de Carvalho", "linha": "desconhecida" }, "geometry": { "type": "Point", "coordinates": [ -43.3131537, -22.8540406 ] } },
{ "type": "Feature", "properties": { "element": "node", "id": 712848999, "name": "Irajá", "linha": "desconhecida" }, "geometry": { "type": "Point", "coordinates": [ -43.3232651, -22.8480227 ] } },
{ "type": "Feature", "properties": { "element": "node", "id": 712849000, "name": "Colégio", "linha": "desconhecida" }, "geometry": { "type": "Point", "coordinates": [ -43.3345459, -22.8426601 ] } },
{ "type": "Feature", "properties": { "element": "node", "id": 712849002, "name": "Maria da Graça", "linha": "desconhecida" }, "geometry": { "type": "Point", "coordinates": [ -43.2601882, -22.8814941 ] } },
{ "type": "Feature", "properties": { "element": "node", "id": 712849005, "name": "Del Castilho", "linha": "desconhecida" }, "geometry": { "type": "Point", "coordinates": [ -43.2719274, -22.8792762 ] } },
{ "type": "Feature", "properties": { "element": "node", "id": 712849006, "name": "Inhaúma", "linha": "desconhecida" }, "geometry": { "type": "Point", "coordinates": [ -43.2834559, -22.8745685 ] } },
{ "type": "Feature", "properties": { "element": "node", "id": 712849008, "name": "Engenho da Rainha", "linha": "desconhecida" }, "geometry": { "type": "Point", "coordinates": [ -43.2973765, -22.8679238 ] } },
{ "type": "Feature", "properties": { "element": "node", "id": 712849010, "name": "Maracanã", "linha": "desconhecida" }, "geometry": { "type": "Point", "coordinates": [ -43.23389, -22.909716 ] } },
{ "type": "Feature", "properties": { "element": "node", "id": 712849012, "name": "Triagem", "linha": "desconhecida" }, "geometry": { "type": "Point", "coordinates": [ -43.2440972, -22.8967174 ] } },
{ "type": "Feature", "properties": { "element": "node", "id": 712849014, "name": "Triagem", "linha": "desconhecida" }, "geometry": { "type": "Point", "coordinates": [ -43.2444785, -22.8968546 ] } },
{ "type": "Feature", "properties": { "element": "node", "id": 712849018, "name": "São Cristóvão", "linha": "desconhecida" }, "geometry": { "type": "Point", "coordinates": [ -43.2228235, -22.9095441 ] } },
{ "type": "Feature", "properties": { "element": "node", "id": 712849019, "name": "São Cristóvão", "linha": "desconhecida" }, "geometry": { "type": "Point", "coordinates": [ -43.2209945, -22.9096934 ] } },
{ "type": "Feature", "properties": { "element": "node", "id": 712849021, "name": "Maracanã", "linha": "desconhecida" }, "geometry": { "type": "Point", "coordinates": [ -43.2332875, -22.9092963 ] } },
{ "type": "Feature", "properties": { "element": "node", "id": 712849023, "name": "Praça da Bandeira", "linha": "desconhecida" }, "geometry": { "type": "Point", "coordinates": [ -43.2129559, -22.9098928 ] } },
{ "type": "Feature", "properties": { "element": "node", "id": 712849026, "name": "Central do Brasil", "linha": "desconhecida" }, "geometry": { "type": "Point", "coordinates": [ -43.1914186, -22.9035467 ] } },
{ "type": "Feature", "properties": { "element": "node", "id": 712849029, "name": "Praça Onze", "linha": "desconhecida" }, "geometry": { "type": "Point", "coordinates": [ -43.200283, -22.909917 ] } },
{ "type": "Feature", "properties": { "element": "node", "id": 712849053, "name": "Carioca / Centro", "linha": "desconhecida" }, "geometry": { "type": "Point", "coordinates": [ -43.1780446, -22.9075668 ] } },
{ "type": "Feature", "properties": { "element": "node", "id": 712849086, "name": "Largo do Machado", "linha": "desconhecida" }, "geometry": { "type": "Point", "coordinates": [ -43.1776913, -22.9311289 ] } },
{ "type": "Feature", "properties": { "element": "node", "id": 712849094, "name": "Cinelândia / Centro", "linha": "desconhecida" }, "geometry": { "type": "Point", "coordinates": [ -43.1756533, -22.9109063 ] } },
{ "type": "Feature", "properties": { "element": "node", "id": 712849124, "name": "Cantagalo / Copacabana", "linha": "desconhecida" }, "geometry": { "type": "Point", "coordinates": [ -43.1944571, -22.9754882 ] } },
{ "type": "Feature", "properties": { "element": "node", "id": 712849129, "name": "Siqueira Campos / Copacabana", "linha": "desconhecida" }, "geometry": { "type": "Point", "coordinates": [ -43.1873375, -22.9673066 ] } },
{ "type": "Feature", "properties": { "element": "node", "id": 745762402, "name": "Cristo Redentor", "linha": "desconhecida" }, "geometry": { "type": "Point", "coordinates": [ -43.2106944, -22.9517537 ] } },
{ "type": "Feature", "properties": { "element": "node", "id": 745762489, "name": "Paineiras", "linha": "desconhecida" }, "geometry": { "type": "Point", "coordinates": [ -43.2174679, -22.9471286 ] } },
{ "type": "Feature", "properties": { "element": "node", "id": 745762499, "name": "Morro do Inglês", "linha": "desconhecida" }, "geometry": { "type": "Point", "coordinates": [ -43.2028132, -22.9465718 ] } },
{ "type": "Feature", "properties": { "element": "node", "id": 823908896, "name": "Bangu", "linha": "desconhecida" }, "geometry": { "type": "Point", "coordinates": [ -43.4656958, -22.8753636 ] } },
{ "type": "Feature", "properties": { "element": "node", "id": 823908904, "name": "Tancredo Neves", "linha": "desconhecida" }, "geometry": { "type": "Point", "coordinates": [ -43.6493079, -22.9188724 ] } },
{ "type": "Feature", "properties": { "element": "node", "id": 823908910, "name": "Benjamim do Monte", "linha": "desconhecida" }, "geometry": { "type": "Point", "coordinates": [ -43.5810156, -22.9062859 ] } },
{ "type": "Feature", "properties": { "element": "node", "id": 823908912, "name": "Quintino", "linha": "desconhecida" }, "geometry": { "type": "Point", "coordinates": [ -43.3212246, -22.8885203 ] } },
{ "type": "Feature", "properties": { "element": "node", "id": 823908922, "name": "Costa Barros", "linha": "desconhecida" }, "geometry": { "type": "Point", "coordinates": [ -43.370258, -22.8217976 ] } },
{ "type": "Feature", "properties": { "element": "node", "id": 823908929, "name": "Madureira", "linha": "desconhecida" }, "geometry": { "type": "Point", "coordinates": [ -43.3376192, -22.8766775 ] } },
{ "type": "Feature", "properties": { "element": "node", "id": 823908935, "name": "Realengo", "linha": "desconhecida" }, "geometry": { "type": "Point", "coordinates": [ -43.4294083, -22.8747603 ] } },
{ "type": "Feature", "properties": { "element": "node", "id": 823908945, "name": "Santa Cruz", "linha": "desconhecida" }, "geometry": { "type": "Point", "coordinates": [ -43.6840898, -22.9155501 ] } },
{ "type": "Feature", "properties": { "element": "node", "id": 823908947, "name": "Tomás Coelho", "linha": "desconhecida" }, "geometry": { "type": "Point", "coordinates": [ -43.3052837, -22.8690481 ] } },
{ "type": "Feature", "properties": { "element": "node", "id": 823908954, "name": "Jacarezinho", "linha": "desconhecida" }, "geometry": { "type": "Point", "coordinates": [ -43.2550613, -22.8841636 ] } },
{ "type": "Feature", "properties": { "element": "node", "id": 823908958, "name": "Olímpica de Engenho de Dentro", "linha": "desconhecida" }, "geometry": { "type": "Point", "coordinates": [ -43.2936902, -22.895595 ] } },
{ "type": "Feature", "properties": { "element": "node", "id": 823908964, "name": "Del Castilho", "linha": "desconhecida" }, "geometry": { "type": "Point", "coordinates": [ -43.2703898, -22.8802009 ] } },
{ "type": "Feature", "properties": { "element": "node", "id": 823908966, "name": "Marechal Hermes", "linha": "desconhecida" }, "geometry": { "type": "Point", "coordinates": [ -43.3712874, -22.8607745 ] } },
{ "type": "Feature", "properties": { "element": "node", "id": 823908970, "name": "Penha", "linha": "desconhecida" }, "geometry": { "type": "Point", "coordinates": [ -43.278626, -22.840384 ] } },
{ "type": "Feature", "properties": { "element": "node", "id": 823908982, "name": "Guilherme da Silveira", "linha": "desconhecida" }, "geometry": { "type": "Point", "coordinates": [ -43.4566788, -22.8752578 ] } },
{ "type": "Feature", "properties": { "element": "node", "id": 823908991, "name": "Vila Militar", "linha": "desconhecida" }, "geometry": { "type": "Point", "coordinates": [ -43.4020334, -22.8625336 ] } },
{ "type": "Feature", "properties": { "element": "node", "id": 823908996, "name": "Mercadão de Madureira", "linha": "desconhecida" }, "geometry": { "type": "Point", "coordinates": [ -43.336866, -22.8732169 ] } },
{ "type": "Feature", "properties": { "element": "node", "id": 823908998, "name": "Senador Camará", "linha": "desconhecida" }, "geometry": { "type": "Point", "coordinates": [ -43.4861142, -22.8757923 ] } },
{ "type": "Feature", "properties": { "element": "node", "id": 823909007, "name": "Pavuna/São João de Meriti", "linha": "desconhecida" }, "geometry": { "type": "Point", "coordinates": [ -43.3670241, -22.8056064 ] } },
{ "type": "Feature", "properties": { "element": "node", "id": 823909015, "name": "Vigário Geral", "linha": "desconhecida" }, "geometry": { "type": "Point", "coordinates": [ -43.3054785, -22.8052642 ] } },
{ "type": "Feature", "properties": { "element": "node", "id": 823909024, "name": "Oswaldo Cruz", "linha": "desconhecida" }, "geometry": { "type": "Point", "coordinates": [ -43.3501396, -22.8691928 ] } },
{ "type": "Feature", "properties": { "element": "node", "id": 823909027, "name": "Ramos", "linha": "desconhecida" }, "geometry": { "type": "Point", "coordinates": [ -43.2600925, -22.8550913 ] } },
{ "type": "Feature", "properties": { "element": "node", "id": 823909046, "name": "Mocidade/Padre Miguel", "linha": "desconhecida" }, "geometry": { "type": "Point", "coordinates": [ -43.4476634, -22.8750904 ] } },
{ "type": "Feature", "properties": { "element": "node", "id": 823909050, "name": "Campo Grande", "linha": "desconhecida" }, "geometry": { "type": "Point", "coordinates": [ -43.5600036, -22.9022661 ] } },
{ "type": "Feature", "properties": { "element": "node", "id": 823909054, "name": "Honório Gurgel", "linha": "desconhecida" }, "geometry": { "type": "Point", "coordinates": [ -43.3572618, -22.8496197 ] } },
{ "type": "Feature", "properties": { "element": "node", "id": 823909055, "name": "Piedade", "linha": "desconhecida" }, "geometry": { "type": "Point", "coordinates": [ -43.3096599, -22.8903992 ] } },
{ "type": "Feature", "properties": { "element": "node", "id": 823909057, "name": "Barros Filho", "linha": "desconhecida" }, "geometry": { "type": "Point", "coordinates": [ -43.3665604, -22.8332113 ] } },
{ "type": "Feature", "properties": { "element": "node", "id": 823909065, "name": "Cascadura", "linha": "desconhecida" }, "geometry": { "type": "Point", "coordinates": [ -43.328066, -22.8827346 ] } },
{ "type": "Feature", "properties": { "element": "node", "id": 823909071, "name": "Magalhães Bastos", "linha": "desconhecida" }, "geometry": { "type": "Point", "coordinates": [ -43.413575, -22.8680841 ] } },
{ "type": "Feature", "properties": { "element": "node", "id": 823909073, "name": "Cavalcanti", "linha": "desconhecida" }, "geometry": { "type": "Point", "coordinates": [ -43.3157493, -22.8745414 ] } },
{ "type": "Feature", "properties": { "element": "node", "id": 823909074, "name": "Cosmos", "linha": "desconhecida" }, "geometry": { "type": "Point", "coordinates": [ -43.6144485, -22.9127658 ] } },
{ "type": "Feature", "properties": { "element": "node", "id": 823909075, "name": "Méier", "linha": "desconhecida" }, "geometry": { "type": "Point", "coordinates": [ -43.278034, -22.9017297 ] } },
{ "type": "Feature", "properties": { "element": "node", "id": 823909078, "name": "Ricardo de Albuquerque", "linha": "desconhecida" }, "geometry": { "type": "Point", "coordinates": [ -43.3984286, -22.8403788 ] } },
{ "type": "Feature", "properties": { "element": "node", "id": 823909080, "name": "Pilares", "linha": "desconhecida" }, "geometry": { "type": "Point", "coordinates": [ -43.2915738, -22.880979 ] } },
{ "type": "Feature", "properties": { "element": "node", "id": 823909083, "name": "Sampaio", "linha": "desconhecida" }, "geometry": { "type": "Point", "coordinates": [ -43.2620752, -22.9019779 ] } },
{ "type": "Feature", "properties": { "element": "node", "id": 823909087, "name": "Cordovil", "linha": "desconhecida" }, "geometry": { "type": "Point", "coordinates": [ -43.2959248, -22.8240151 ] } },
{ "type": "Feature", "properties": { "element": "node", "id": 823909091, "name": "Riachuelo", "linha": "desconhecida" }, "geometry": { "type": "Point", "coordinates": [ -43.2555117, -22.9014724 ] } },
{ "type": "Feature", "properties": { "element": "node", "id": 823909092, "name": "Rocha Miranda", "linha": "desconhecida" }, "geometry": { "type": "Point", "coordinates": [ -43.3517885, -22.8546618 ] } },
{ "type": "Feature", "properties": { "element": "node", "id": 823909093, "name": "Paciência", "linha": "desconhecida" }, "geometry": { "type": "Point", "coordinates": [ -43.6324651, -22.9162516 ] } },
{ "type": "Feature", "properties": { "element": "node", "id": 823909094, "name": "Parada de Lucas", "linha": "desconhecida" }, "geometry": { "type": "Point", "coordinates": [ -43.3007438, -22.8166618 ] } },
{ "type": "Feature", "properties": { "element": "node", "id": 823909099, "name": "Deodoro", "linha": "desconhecida" }, "geometry": { "type": "Point", "coordinates": [ -43.3835251, -22.8550694 ] } },
{ "type": "Feature", "properties": { "element": "node", "id": 823909101, "name": "Penha Circular", "linha": "desconhecida" }, "geometry": { "type": "Point", "coordinates": [ -43.2850429, -22.8366343 ] } },
{ "type": "Feature", "properties": { "element": "node", "id": 823909107, "name": "Santíssimo", "linha": "desconhecida" }, "geometry": { "type": "Point", "coordinates": [ -43.5113977, -22.8796485 ] } },
{ "type": "Feature", "properties": { "element": "node", "id": 823909108, "name": "Inhoaíba", "linha": "desconhecida" }, "geometry": { "type": "Point", "coordinates": [ -43.5950918, -22.9090062 ] } },
{ "type": "Feature", "properties": { "element": "node", "id": 823909110, "name": "Anchieta", "linha": "desconhecida" }, "geometry": { "type": "Point", "coordinates": [ -43.4032236, -22.8244039 ] } },
{ "type": "Feature", "properties": { "element": "node", "id": 823909111, "name": "Augusto Vasconcelos", "linha": "desconhecida" }, "geometry": { "type": "Point", "coordinates": [ -43.5373957, -22.8930412 ] } },
{ "type": "Feature", "properties": { "element": "node", "id": 823909117, "name": "Brás de Pina", "linha": "desconhecida" }, "geometry": { "type": "Point", "coordinates": [ -43.2930029, -22.8303878 ] } },
{ "type": "Feature", "properties": { "element": "node", "id": 823909118, "name": "Prefeito Bento Ribeiro", "linha": "desconhecida" }, "geometry": { "type": "Point", "coordinates": [ -43.3616461, -22.8643462 ] } },
{ "type": "Feature", "properties": { "element": "node", "id": 823909122, "name": "Olaria", "linha": "desconhecida" }, "geometry": { "type": "Point", "coordinates": [ -43.2663633, -22.8471867 ] } },
{ "type": "Feature", "properties": { "element": "node", "id": 974274513, "name": "Cidade Nova", "linha": "desconhecida" }, "geometry": { "type": "Point", "coordinates": [ -43.2062984, -22.9087465 ] } },
{ "type": "Feature", "properties": { "element": "node", "id": 982308914, "name": "Silva Freire", "linha": "desconhecida" }, "geometry": { "type": "Point", "coordinates": [ -43.2751743, -22.9041267 ] } },
{ "type": "Feature", "properties": { "element": "node", "id": 1473517781, "name": "Saens Peña / Tijuca", "linha": "desconhecida" }, "geometry": { "type": "Point", "coordinates": [ -43.2325924, -22.924141 ] } },
{ "type": "Feature", "properties": { "element": "node", "id": 1784229907, "name": "Uruguai / Tijuca", "linha": "desconhecida" }, "geometry": { "type": "Point", "coordinates": [ -43.2382699, -22.9309412 ] } },
{ "type": "Feature", "properties": { "element": "node", "id": 2726866239, "name": "Saara / Presidente Vargas", "linha": "desconhecida" }, "geometry": { "type": "Point", "coordinates": [ -43.1861796, -22.903341 ] } },
{ "type": "Feature", "properties": { "element": "node", "id": 3135650199, "name": "Gávea", "linha": "desconhecida" }, "geometry": { "type": "Point", "coordinates": [ -43.2322953, -22.9794504 ] } },
{ "type": "Feature", "properties": { "element": "node", "id": 4317159358, "name": "Antero de Quental / Leblon", "linha": "desconhecida" }, "geometry": { "type": "Point", "coordinates": [ -43.2236274, -22.9845429 ] } },
{ "type": "Feature", "properties": { "element": "node", "id": 4317159359, "name": "Jardim de Alah / Leblon", "linha": "desconhecida" }, "geometry": { "type": "Point", "coordinates": [ -43.2162656, -22.9837348 ] } },
{ "type": "Feature", "properties": { "element": "node", "id": 4317159360, "name": "Nossa Senhora da Paz / Ipanema", "linha": "desconhecida" }, "geometry": { "type": "Point", "coordinates": [ -43.2060232, -22.9837208 ] } },
{ "type": "Feature", "properties": { "element": "node", "id": 5284484734, "name": "Uruguaiana / Centro", "linha": "desconhecida" }, "geometry": { "type": "Point", "coordinates": [ -43.1818193, -22.9029089 ] } },
{ "type": "Feature", "properties": { "element": "node", "id": 5362542035, "name": "Pavuna", "linha": "desconhecida" }, "geometry": { "type": "Point", "coordinates": [ -43.3654752, -22.8063182 ] } },
{ "type": "Feature", "properties": { "element": "node", "id": 5365436833, "name": "Central do Brasil / Centro", "linha": "desconhecida" }, "geometry": { "type": "Point", "coordinates": [ -43.1910571, -22.9046111 ] } },
{ "type": "Feature", "properties": { "element": "node", "id": 5367720224, "name": "General Osório / Ipanema", "linha": "desconhecida" }, "geometry": { "type": "Point", "coordinates": [ -43.1964357, -22.9821162 ] } },
{ "type": "Feature", "properties": { "element": "node", "id": 6744577066, "name": "Engenho Novo", "linha": "desconhecida" }, "geometry": { "type": "Point", "coordinates": [ -43.2707632, -22.9034589 ] } },
{ "type": "Feature", "properties": { "element": "node", "id": 6750699335, "name": "Mangueira / Jamelão", "linha": "desconhecida" }, "geometry": { "type": "Point", "coordinates": [ -43.2368314, -22.9085075 ] } },
{ "type": "Feature", "properties": { "element": "node", "id": 6750743893, "name": "Bonsucesso", "linha": "desconhecida" }, "geometry": { "type": "Point", "coordinates": [ -43.2552863, -22.8676107 ] } },
{ "type": "Feature", "properties": { "element": "node", "id": 6753772513, "name": "Manguinhos", "linha": "desconhecida" }, "geometry": { "type": "Point", "coordinates": [ -43.2508881, -22.8796755 ] } },
{ "type": "Feature", "properties": { "element": "node", "id": 9113671311, "name": "Flamengo", "linha": "desconhecida" }, "geometry": { "type": "Point", "coordinates": [ -43.1785326, -22.9371994 ] } },
{ "type": "Feature", "properties": { "element": "node", "id": 10750959453, "name": "São Conrado", "linha": "desconhecida" }, "geometry": { "type": "Point", "coordinates": [ -43.2550269, -22.9912296 ] } },
{ "type": "Feature", "properties": { "element": "node", "id": 11154498637, "name": "Jardim Oceânico / Barra da Tijuca", "linha": "desconhecida" }, "geometry": { "type": "Point", "coordinates": [ -43.3109619, -23.006834 ] } },
{ "type": "Feature", "properties": { "element": "node", "id": 13123639750, "name": "Silvestre", "linha": "desconhecida" }, "geometry": { "type": "Point", "coordinates": [ -43.2050087, -22.9457346 ] } }
]
}
